WKT,nome,descrição,Tipo,cor,longitude,latitude
POINT (-38.4416343 -12.914949),INTER SOCCER Academia de futebol - Unidade Pau da Lima,,Campo de futebol,#EF1325,-38.4416343,-12.914949
POINT (-38.4742498 -12.9702464),Champion Multi Arena,,Campo de futebol,#EF1325,-38.4742498,-12.9702464
POINT (-38.39398320000001 -12.9412065),Arena Golaço,,Campo de futebol,#EF1325,-38.39398320000001,-12.9412065
POINT (-38.3568063 -12.8708852),Campo Chuteira Cansada,,Campo de futebol,#EF1325,-38.3568063,-12.8708852
POINT (-38.4208117 -12.9765565),Campos de Futebol - Boca do Rio,,Campo de futebol,#EF1325,-38.4208117,-12.9765565
POINT (-38.3651082 -12.9342279),Arena Km 17 - Campo de Futebol,,Campo de futebol,#EF1325,-38.3651082,-12.9342279
POINT (-38.306588 -12.8773888),Arenas Evo Unidade Villas,,Campo de futebol,#EF1325,-38.306588,-12.8773888
POINT (-38.4717979 -12.9757947),Point da Bola,,Campo de futebol,#EF1325,-38.4717979,-12.9757947
POINT (-38.4077351 -12.9276314),Campo De Futebol,,Campo de futebol,#EF1325,-38.4077351,-12.9276314
POINT (-38.4135059 -12.971881),Arena Guanabara,,Campo de futebol,#EF1325,-38.4135059,-12.971881
POINT (-38.4713768 -12.9773555),Ponto 1,,Centro comunitário,#7F3483,-38.4713768,-12.9773555
POINT (-38.36029049999999 -12.9341526),Centro Comunitário Ágape,,Centro comunitário,#7F3483,-38.36029049999999,-12.9341526
POINT (-38.4525988 -12.8509252),Centro Comunitário Fazenda Coutos,,Centro comunitário,#7F3483,-38.4525988,-12.8509252
POINT (-38.4671866 -12.8608192),Centro Comunitário Arnaldo Anselmo,,Centro comunitário,#7F3483,-38.4671866,-12.8608192
POINT (-38.5026349 -12.9966087),Centro Comunal do Parque São Bráz,,Centro comunitário,#7F3483,-38.5026349,-12.9966087
POINT (-38.460348 -13.0018527),Centro Comunitário da Pituba Padre Casimiro Quiroga,,Centro comunitário,#7F3483,-38.460348,-13.0018527
POINT (-38.4977671 -12.9962275),CSU - Centro Social Urbano da Federação,,Centro comunitário,#7F3483,-38.4977671,-12.9962275
POINT (-38.4627099 -12.8412198),CENTRO COMUNITÁRIO DO BATE CORAÇÃO,,Centro comunitário,#7F3483,-38.4627099,-12.8412198
POINT (-38.4399135 -12.9593199),Centro Social Urbano de Narandiba,,Centro comunitário,#7F3483,-38.4399135,-12.9593199
POINT (-38.3596476 -12.9513504),Centro Social Paroquial Mons. Mario Rebuffoni,,Centro comunitário,#7F3483,-38.3596476,-12.9513504
POINT (-38.3525688 -12.8906265),Centro Comunitário,,Centro comunitário,#7F3483,-38.3525688,-12.8906265
POINT (-38.5237084 -12.9997346),Igreja Nossa Senhora da Graça,,Centro religioso,#28B1C3,-38.5237084,-12.9997346
POINT (-38.5197949 -12.9840986),Igreja Senhor Bom Jesus do Aflitos,,Centro religioso,#28B1C3,-38.5197949,-12.9840986
POINT (-38.4809331 -13.0054907),Igreja Matriz Cristo Redentor,,Centro religioso,#28B1C3,-38.4809331,-13.0054907
POINT (-38.5321295 -13.0013105),Igreja Santo Antônio da Barra,,Centro religioso,#28B1C3,-38.5321295,-13.0013105
POINT (-38.4739799 -13.0071833),Igreja Matriz Paróquia Santo André,,Centro religioso,#28B1C3,-38.4739799,-13.0071833
POINT (-38.5155526 -12.9832497),Paróquia de São Pedro,,Centro religioso,#28B1C3,-38.5155526,-12.9832497
POINT (-38.4601959 -12.993904),Igreja Batista Regular da Pituba,,Centro religioso,#28B1C3,-38.4601959,-12.993904
POINT (-38.3329467 -12.8887101),Igreja Primícias Das Nações,,Centro religioso,#28B1C3,-38.3329467,-12.8887101
POINT (-38.4573309 -12.9909218),Igreja Nossa Senhora da Assunção,,Centro religioso,#28B1C3,-38.4573309,-12.9909218
POINT (-38.4660994 -13.0107456),Igreja Batista Lírio dos Vales,,Centro religioso,#28B1C3,-38.4660994,-13.0107456
POINT (-38.5171269 -12.9817726),CEAD Centro Espírita Alma D'Ângelis.,,Centro religioso,#28B1C3,-38.5171269,-12.9817726
POINT (-38.5014375 -12.9615104),Centro Espírita Luz e Caridade,,Centro religioso,#28B1C3,-38.5014375,-12.9615104
POINT (-38.3607089 -12.9493107),Centro Espírita Estrela Guia de Itapuã,,Centro religioso,#28B1C3,-38.3607089,-12.9493107
POINT (-38.44635 -12.9330984),Casa do Caminho - Pronto Atendimento Espírita,,Centro religioso,#28B1C3,-38.44635,-12.9330984
POINT (-38.5123518 -12.9272236),Centro de Caridade Caboclo Capangueiro-CCCC,,Centro religioso,#28B1C3,-38.5123518,-12.9272236
POINT (-38.4701169 -13.0120999),Centro Espírita Seareiros da Luz,,Centro religioso,#28B1C3,-38.4701169,-13.0120999
POINT (-38.4915573 -12.9695052),Centro Espírita Deus Luz e Verdade,,Centro religioso,#28B1C3,-38.4915573,-12.9695052
POINT (-38.3031063 -12.8691047),Centro Espírita Amor e Sabedoria,,Centro religioso,#28B1C3,-38.3031063,-12.8691047
POINT (-38.5089974 -12.9730111),INSTITUTO KARDECISTA DA BAHIA,,Centro religioso,#28B1C3,-38.5089974,-12.9730111
POINT (-38.4674488 -13.0095415),Centro Espírita Paulo e Estevão,,Centro religioso,#28B1C3,-38.4674488,-13.0095415
POINT (-38.4596056 -13.0052338),Igreja Universal,,Centro religioso,#28B1C3,-38.4596056,-13.0052338
POINT (-38.4760042 -12.9321007),Igreja Universal,,Centro religioso,#28B1C3,-38.4760042,-12.9321007
POINT (-38.4766891 -13.0039643),Igreja Universal,,Centro religioso,#28B1C3,-38.4766891,-13.0039643
POINT (-38.4442411 -12.9336591),Igreja Universal,,Centro religioso,#28B1C3,-38.4442411,-12.9336591
POINT (-38.3625121 -12.938472),Igreja Universal,,Centro religioso,#28B1C3,-38.3625121,-12.938472
POINT (-38.5151679 -12.9783526),Igreja Universal,,Centro religioso,#28B1C3,-38.5151679,-12.9783526
POINT (-38.4904406 -12.9464549),Igreja Universal - Liberdade,,Centro religioso,#28B1C3,-38.4904406,-12.9464549
POINT (-38.4452679 -12.9466457),Igreja Universal,,Centro religioso,#28B1C3,-38.4452679,-12.9466457
POINT (-38.4707537 -12.9765347),Igreja Universal,,Centro religioso,#28B1C3,-38.4707537,-12.9765347
POINT (-38.4795854 -12.942445),Igreja Universal,,Centro religioso,#28B1C3,-38.4795854,-12.942445
POINT (-38.510355 -12.9727852),Catedral-Basílica Primacial de São Salvador,,Centro religioso,#28B1C3,-38.510355,-12.9727852
POINT (-38.5019915 -12.9689958),Catedral da Bênção,,Centro religioso,#28B1C3,-38.5019915,-12.9689958
POINT (-38.4672617 -12.9807913),Igreja Universal | Catedral,,Centro religioso,#28B1C3,-38.4672617,-12.9807913
POINT (-38.3391733 -12.9434644),Cathedrall,,Centro religioso,#28B1C3,-38.3391733,-12.9434644
POINT (-38.3474013 -12.9319875),Catedral dos Milagres Church,,Centro religioso,#28B1C3,-38.3474013,-12.9319875
POINT (-38.51156439999999 -12.9809014),Padaria Piedade,,Padaria,#107F75,-38.51156439999999,-12.9809014
POINT (-38.501116 -13.0069895),Padaria Sabor Real,,Padaria,#107F75,-38.501116,-13.0069895
POINT (-38.50736360000001 -12.9792536),Padaria Sr. Afonso,,Padaria,#107F75,-38.50736360000001,-12.9792536
POINT (-38.5199188 -12.9876554),Padaria Favorita,,Padaria,#107F75,-38.5199188,-12.9876554
POINT (-38.5138807 -13.0015868),Padaria Mega Pão,,Padaria,#107F75,-38.5138807,-13.0015868
POINT (-38.4627268 -13.0018586),Paneville Padaria Gourmet - Pituba Salvador,,Padaria,#107F75,-38.4627268,-13.0018586
POINT (-38.5111029 -12.9763384),Padaria e mercado Paris,,Padaria,#107F75,-38.5111029,-12.9763384
POINT (-38.3204825 -12.8789553),Padaria Novo Pão,,Padaria,#107F75,-38.3204825,-12.8789553
POINT (-38.498176 -12.945856),Padaria Bom Gosto,,Padaria,#107F75,-38.498176,-12.945856
POINT (-38.4857253 -13.0126144),Padaria Yemanjá,,Padaria,#107F75,-38.4857253,-13.0126144
POINT (-38.5094604 -13.0075229),Ondina Delicatessen,,Padaria,#107F75,-38.5094604,-13.0075229
POINT (-38.5193431 -12.9978816),Deli & Cia,,Padaria,#107F75,-38.5193431,-12.9978816
POINT (-38.5172496 -13.0009639),Delicatessen Doce Pão,,Padaria,#107F75,-38.5172496,-13.0009639
POINT (-38.461197 -12.9856658),Sampaio Delicatéssen,,Padaria,#107F75,-38.461197,-12.9856658
POINT (-38.4337696 -12.964709),Clássica Delicatessen,,Padaria,#107F75,-38.4337696,-12.964709
POINT (-38.4817686 -12.9885595),Deli e Pão,,Padaria,#107F75,-38.4817686,-12.9885595
POINT (-38.4449799 -12.9857853),D’alinda Delicatessen,,Padaria,#107F75,-38.4449799,-12.9857853
POINT (-38.3226005 -12.8953135),Delipani Delicatessen,,Padaria,#107F75,-38.3226005,-12.8953135
POINT (-38.5302936 -13.0035447),Delicatessen Sabor do Porto,,Padaria,#107F75,-38.5302936,-13.0035447
POINT (-38.3714246 -12.9492432),Pão da Vila Padocatessen,,Padaria,#107F75,-38.3714246,-12.9492432
POINT (-38.51985089999999 -12.9861788),CNI - Curso de Informática Necrópsia e Profissionalizantes,,Centro de formação e educação,#EC2505,-38.51985089999999,-12.9861788
POINT (-38.4820223 -12.988799),Centro de Treinamento Formar,,Centro de formação e educação,#EC2505,-38.4820223,-12.988799
POINT (-38.35112589999999 -12.9138318),Auto Escola Veja,,Centro de formação e educação,#EC2505,-38.35112589999999,-12.9138318
POINT (-38.4877694 -12.8991726),C.T.I - CENTRO DE TREINAMENTO INTEGRADO,,Centro de formação e educação,#EC2505,-38.4877694,-12.8991726
POINT (-38.45544699999999 -13.005361),Evolução Centro de Capacitação,,Centro de formação e educação,#EC2505,-38.45544699999999,-13.005361
POINT (-38.3084617 -12.8913273),Escola Vila Alegria,,Centro de formação e educação,#EC2505,-38.3084617,-12.8913273
POINT (-38.3511052 -12.9109003),Escola Municipal Brigadeiro Eduardo Gomes.,,Centro de formação e educação,#EC2505,-38.3511052,-12.9109003
POINT (-38.4550005 -12.9718187),Escola Educandário Sousa Brito I Pré -escolar I Escola particular I Ensino Fundamental I Pernambués  Salvador  Ba,,Centro de formação e educação,#EC2505,-38.4550005,-12.9718187
POINT (-38.4575077 -12.9916642),Escola Lua Nova,,Centro de formação e educação,#EC2505,-38.4575077,-12.9916642
POINT (-38.4980498 -12.9287164),ESCOLA ESTADUAL PROFESSORA OCRIDALINA MADUREIRA,,Centro de formação e educação,#EC2505,-38.4980498,-12.9287164
POINT (-38.4689739 -12.9195621),Escola Municipal Campinas de Pirajá,,Centro de formação e educação,#EC2505,-38.4689739,-12.9195621
POINT (-38.3323609 -12.9368626),Escola Gênesis | Stella Maris,,Centro de formação e educação,#EC2505,-38.3323609,-12.9368626
POINT (-38.4564323 -12.9916601),Colégio Estadual Raphael Serravalle,,Centro de formação e educação,#EC2505,-38.4564323,-12.9916601
POINT (-38.4339105 -12.9697422),Colégio Estadual Professor Rômulo Almeida,,Centro de formação e educação,#EC2505,-38.4339105,-12.9697422
POINT (-38.4746288 -12.8884354),Escola Meu Jardim,,Centro de formação e educação,#EC2505,-38.4746288,-12.8884354
POINT (-38.5058916 -12.9314889),Colegio Arte,,Centro de formação e educação,#EC2505,-38.5058916,-12.9314889
POINT (-38.4479277 -12.9459275),Colégio Bom Jesus,,Centro de formação e educação,#EC2505,-38.4479277,-12.9459275
POINT (-38.4949583 -12.9854856),Colégio Nossa Senhora da Conceição,,Centro de formação e educação,#EC2505,-38.4949583,-12.9854856
POINT (-38.4787079 -12.9334987),Colégio Império do Saber,,Centro de formação e educação,#EC2505,-38.4787079,-12.9334987
POINT (-38.4497828 -12.9964595),Colégio Cândido Portinari,,Centro de formação e educação,#EC2505,-38.4497828,-12.9964595
POINT (-38.4892951 -12.9857679),Colégio Patrícia Lima,,Centro de formação e educação,#EC2505,-38.4892951,-12.9857679
POINT (-38.4496435 -12.9994836),Colegio Integral - Portaria Principal,,Centro de formação e educação,#EC2505,-38.4496435,-12.9994836
POINT (-38.4524659 -13.0021265),Colégio Anchieta,,Centro de formação e educação,#EC2505,-38.4524659,-13.0021265
POINT (-38.4394345 -12.9644894),Colégio Paralela,,Centro de formação e educação,#EC2505,-38.4394345,-12.9644894
POINT (-38.49120200000001 -12.9714654),Colégio Mundial,,Centro de formação e educação,#EC2505,-38.49120200000001,-12.9714654
POINT (-38.4482233 -12.9600988),Colégio Estadual Governador Otávio Mangabeira,,Centro de formação e educação,#EC2505,-38.4482233,-12.9600988
POINT (-38.4325016 -12.9014107),Colégio Estadual Professor Raymundo de Almeida Gouveia,,Centro de formação e educação,#EC2505,-38.4325016,-12.9014107
POINT (-38.4490874 -12.9439),Colégio Estadual Helena Magalhaes,,Centro de formação e educação,#EC2505,-38.4490874,-12.9439
POINT (-38.4591495 -12.8551689),Colégio Estadual Monteiro Lobato,,Centro de formação e educação,#EC2505,-38.4591495,-12.8551689
POINT (-38.4870946 -12.8998854),Colégio Estadual de Plataforma,,Centro de formação e educação,#EC2505,-38.4870946,-12.8998854
POINT (-38.4493138 -12.9973804),Colégio Estadual Thales de Azevedo,,Centro de formação e educação,#EC2505,-38.4493138,-12.9973804
POINT (-38.4842544 -12.9918325),Colégio Estadual Luis Viana,,Centro de formação e educação,#EC2505,-38.4842544,-12.9918325
POINT (-38.4868943 -12.9837115),Colégio Estadual Doutor Joao Pedro Dos Santos,,Centro de formação e educação,#EC2505,-38.4868943,-12.9837115
POINT (-38.4438362 -12.9489432),Colégio Estadual Deputado Luis Eduardo Magalhaes,,Centro de formação e educação,#EC2505,-38.4438362,-12.9489432
POINT (-38.4450222 -12.9850153),Colégio Estadual Carlos Marighella,,Centro de formação e educação,#EC2505,-38.4450222,-12.9850153
POINT (-38.4023719 -12.8890597),ESCOLA ESTADUAL LUIZ JOSE DE OLIVEIRA,,Centro de formação e educação,#EC2505,-38.4023719,-12.8890597
POINT (-38.4700807 -12.8392599),Colégio Estadual Sete De Setembro,,Centro de formação e educação,#EC2505,-38.4700807,-12.8392599
POINT (-38.4481942 -12.9600921),Colégio Estadual Governador Otávio Mangabeira,,Centro de formação e educação,#EC2505,-38.4481942,-12.9600921
POINT (-38.4761678 -12.9355729),Colégio Estadual Desembargador Pedro Ribeiro,,Centro de formação e educação,#EC2505,-38.4761678,-12.9355729
POINT (-38.5298434 -13.0060164),Colégio Estadual João das Botas,,Centro de formação e educação,#EC2505,-38.5298434,-13.0060164
POINT (-38.4075505 -12.8910779),Colégio Estadual Dona Mora Guimarães,,Centro de formação e educação,#EC2505,-38.4075505,-12.8910779
POINT (-38.43581770000001 -12.9730423),Centro Educacional Imbuí,,Centro de formação e educação,#EC2505,-38.43581770000001,-12.9730423
POINT (-38.43213110000001 -12.8910142),Centro de Educação Recanto Verde,,Centro de formação e educação,#EC2505,-38.43213110000001,-12.8910142
POINT (-38.4380002 -12.929163),Centro Educacional São Marcos,,Centro de formação e educação,#EC2505,-38.4380002,-12.929163
POINT (-38.3541292 -12.8863183),Centro Educacional Conhecimento,,Centro de formação e educação,#EC2505,-38.3541292,-12.8863183
POINT (-38.4944201 -12.9529475),Centro Educacional SALES,,Centro de formação e educação,#EC2505,-38.4944201,-12.9529475
POINT (-38.4001028 -12.8984681),Centro Educacional Educcar,,Centro de formação e educação,#EC2505,-38.4001028,-12.8984681
POINT (-38.3771346 -12.9085874),Centro Educacional Andrade,,Centro de formação e educação,#EC2505,-38.3771346,-12.9085874
POINT (-38.5118242 -12.9938896),Centro Educacional Edgard Santos,,Centro de formação e educação,#EC2505,-38.5118242,-12.9938896
POINT (-38.4877605 -12.9621995),Centro Educacional Cidade Nova,,Centro de formação e educação,#EC2505,-38.4877605,-12.9621995
POINT (-38.4629958 -12.9548628),Prime Profissionalizante,,Centro de formação e educação,#EC2505,-38.4629958,-12.9548628
POINT (-38.4081847 -12.8995151),Instituto Mix - Salvador (Cajazeiras),,Centro de formação e educação,#EC2505,-38.4081847,-12.8995151
POINT (-38.4637359 -12.9663276),Prepara Cursos Pernambués,,Centro de formação e educação,#EC2505,-38.4637359,-12.9663276
POINT (-38.4431123 -12.9208804),Prepara Cursos,,Centro de formação e educação,#EC2505,-38.4431123,-12.9208804
POINT (-38.3477565 -12.8945705),Realizar Profissões,,Centro de formação e educação,#EC2505,-38.3477565,-12.8945705
POINT (-38.4716098 -12.840088),Instituto Bourbon de Educação - Paripe,,Centro de formação e educação,#EC2505,-38.4716098,-12.840088
POINT (-38.52186369999999 -12.9876258),CEBRAC,,Centro de formação e educação,#EC2505,-38.52186369999999,-12.9876258
POINT (-38.5067719 -12.9782795),Grau Profissionalizante - Salvador Fonte Nova,,Centro de formação e educação,#EC2505,-38.5067719,-12.9782795
POINT (-38.4482332 -12.9891502),Sebrae Bahia - Sede Administrativa (BA),,Centro de formação e educação,#EC2505,-38.4482332,-12.9891502
POINT (-38.4984914 -12.9381297),Sebrae Salvador - Uruguai/Itapagipe (BA),,Centro de formação e educação,#EC2505,-38.4984914,-12.9381297
POINT (-38.51373220000001 -12.9830493),Sebrae Salvador - Center Lapa (BA),,Centro de formação e educação,#EC2505,-38.51373220000001,-12.9830493
POINT (-38.4482002 -12.9891486),Sebrae Salvador - Agência Costa Azul,,Centro de formação e educação,#EC2505,-38.4482002,-12.9891486
POINT (-38.4744252 -12.996371),Sebraelab Bahia,,Centro de formação e educação,#EC2505,-38.4744252,-12.996371
POINT (-38.4744634 -12.996573),Sebrae Ecos,,Centro de formação e educação,#EC2505,-38.4744634,-12.996573
POINT (-38.5016153 -12.9538319),Sesc São Joaquim,,Centro de formação e educação,#EC2505,-38.5016153,-12.9538319
POINT (-38.5035299 -12.9757857),SESC Nazaré,,Centro de formação e educação,#EC2505,-38.5035299,-12.9757857
POINT (-38.3874942 -12.954885),Sesc Piatã,,Centro de formação e educação,#EC2505,-38.3874942,-12.954885
POINT (-38.5100089 -12.9700034),Sesc Comércio,,Centro de formação e educação,#EC2505,-38.5100089,-12.9700034
POINT (-38.5044179 -12.9692904),Sesc Aquidaba,,Centro de formação e educação,#EC2505,-38.5044179,-12.9692904
POINT (-38.5136371 -12.9758677),Sesc Rua Chile telefone não atende,,Centro de formação e educação,#EC2505,-38.5136371,-12.9758677
POINT (-38.50909660000001 -12.9733679),Centro de Formação Profissional SESC,,Centro de formação e educação,#EC2505,-38.50909660000001,-12.9733679
POINT (-38.501707 -12.9538047),Programa Mesa Brasil - Sesc Bahia,,Centro de formação e educação,#EC2505,-38.501707,-12.9538047
POINT (-38.4562415 -12.9798499),Sesc Casa do Comércio,,Centro de formação e educação,#EC2505,-38.4562415,-12.9798499
POINT (-38.4107435 -12.9376671),Centro Universitário Jorge Amado Campus Paralela,,Centro de formação e educação,#EC2505,-38.4107435,-12.9376671
POINT (-38.3920763 -12.934439),UNIFTC - SALVADOR,,Centro de formação e educação,#EC2505,-38.3920763,-12.934439
POINT (-38.4133785 -12.9485141),Universidade Católica do Salvador - UCSal,,Centro de formação e educação,#EC2505,-38.4133785,-12.9485141
POINT (-38.4313397 -12.9611363),Centro Universitário UniRuy - Wyden,,Centro de formação e educação,#EC2505,-38.4313397,-12.9611363
POINT (-38.4219937 -12.9695405),UNICEUSA - Centro Universitário de Salvador,,Centro de formação e educação,#EC2505,-38.4219937,-12.9695405
POINT (-38.4319418 -12.9610877),Universidade Salvador - Campus Prof. Barros,,Centro de formação e educação,#EC2505,-38.4319418,-12.9610877
POINT (-38.4503646 -12.9851962),UNIFACS Universidade Salvador - Campus Costa Azul,,Centro de formação e educação,#EC2505,-38.4503646,-12.9851962
POINT (-38.4512179 -12.9815797),UNIFACS Campus Tancredo Neves,,Centro de formação e educação,#EC2505,-38.4512179,-12.9815797
POINT (-38.4594595 -12.952777),Universidade do Estado da Bahia,,Centro de formação e educação,#EC2505,-38.4594595,-12.952777
POINT (-38.4462826 -12.9813438),Estácio - Campus Gilberto Gil,,Centro de formação e educação,#EC2505,-38.4462826,-12.9813438
POINT (-38.39207629999999 -12.934439),UNIFTC - SALVADOR,,Centro de formação e educação,#EC2505,-38.39207629999999,-12.934439
POINT (-38.4995256 -12.9518961),Faculdade São Salvador,,Centro de formação e educação,#EC2505,-38.4995256,-12.9518961
POINT (-38.3945855 -12.9366876),Faculdade Unime Anhanguera de Salvador,,Centro de formação e educação,#EC2505,-38.3945855,-12.9366876
POINT (-38.4730803 -12.990897),Universo Universidade Salgado de Oliveira - Salvador,,Centro de formação e educação,#EC2505,-38.4730803,-12.990897
POINT (-38.4710535 -12.9799349),Faculdade Anhanguera - Iguatemi,,Centro de formação e educação,#EC2505,-38.4710535,-12.9799349
POINT (-38.4521471 -12.9951914),UNINASSAU - Salvador,,Centro de formação e educação,#EC2505,-38.4521471,-12.9951914
POINT (-38.4015758 -12.9594914),Centro Universitário UNIRB,,Centro de formação e educação,#EC2505,-38.4015758,-12.9594914
POINT (-38.5124825 -12.9716687),Centro Universitário Dom Pedro II - Campus I,,Centro de formação e educação,#EC2505,-38.5124825,-12.9716687
POINT (-38.5124237 -12.9702261),Centro Universitário UnidomPedro - Campus II,,Centro de formação e educação,#EC2505,-38.5124237,-12.9702261
POINT (-38.5184887 -12.9855041),UNINASSAU - Centro Universitário Maurício de Nassau,,Centro de formação e educação,#EC2505,-38.5184887,-12.9855041
POINT (-38.4463976 -12.9814679),Centro Universitário Estácio da Bahia - Estácio Bahia,,Centro de formação e educação,#EC2505,-38.4463976,-12.9814679
POINT (-38.38713800000001 -12.938416),SENAI CIMATEC,,Centro de formação e educação,#EC2505,-38.38713800000001,-12.938416
POINT (-38.4873747 -13.0127216),Colégio Estadual Euricles de Matos,,Centro de formação e educação,#EC2505,-38.4873747,-13.0127216
POINT (-38.4874607 -13.0108916),Escola Sempre Viva,,Centro de formação e educação,#EC2505,-38.4874607,-13.0108916
POINT (-38.4936788 -13.0105571),Escola Medalha Milagrosa,,Centro de formação e educação,#EC2505,-38.4936788,-13.0105571
POINT (-38.5000463 -13.0107373),Escola Municipal Ana Nery,,Centro de formação e educação,#EC2505,-38.5000463,-13.0107373
POINT (-38.4858155 -13.0082638),Escola Caramelo,,Centro de formação e educação,#EC2505,-38.4858155,-13.0082638
POINT (-38.4806132 -13.009408),Escola Geração Eleita,,Centro de formação e educação,#EC2505,-38.4806132,-13.009408
POINT (-38.4841857 -13.0112953),Escola Vanguarda Educação Infantil,,Centro de formação e educação,#EC2505,-38.4841857,-13.0112953
POINT (-38.4874488 -13.0130888),Escola Municipal Osvaldo Cruz,,Centro de formação e educação,#EC2505,-38.4874488,-13.0130888
POINT (-38.4985747 -13.0082497),Colégio Passos do Saber,,Centro de formação e educação,#EC2505,-38.4985747,-13.0082497
POINT (-38.4917632 -13.0099061),Escola Municipal Senhora Santana,,Centro de formação e educação,#EC2505,-38.4917632,-13.0099061
POINT (-38.4689724 -13.0060481),Colégio Estadual Polivalente De Amaralina,,Centro de formação e educação,#EC2505,-38.4689724,-13.0060481
POINT (-38.4794711 -13.0119542),Escola Adventista de Amaralina,,Centro de formação e educação,#EC2505,-38.4794711,-13.0119542
POINT (-38.474078 -13.0126701),ESCOLA ESPELHO MEU,,Centro de formação e educação,#EC2505,-38.474078,-13.0126701
POINT (-38.4721038 -13.00716),Escola Passos do Saber,,Centro de formação e educação,#EC2505,-38.4721038,-13.00716
POINT (-38.472384 -13.0126048),CMEI Amaralina,,Centro de formação e educação,#EC2505,-38.472384,-13.0126048
POINT (-38.4685548 -13.0056804),Escola Municipal Zulmira Torres,,Centro de formação e educação,#EC2505,-38.4685548,-13.0056804
POINT (-38.47318629999999 -13.0104581),Escola Professor Bernadino Moreira,,Centro de formação e educação,#EC2505,-38.47318629999999,-13.0104581
POINT (-38.4745557 -13.0122191),Escola Casa de Belém,,Centro de formação e educação,#EC2505,-38.4745557,-13.0122191
POINT (-38.47244329999999 -13.0121858),Escola Kily Kids,,Centro de formação e educação,#EC2505,-38.47244329999999,-13.0121858
POINT (-38.4780966 -13.008241),E.P.A. Escola por Princípios de Amaralina,,Centro de formação e educação,#EC2505,-38.4780966,-13.008241
POINT (-38.47568220000001 -13.0076404),Escola Colombo,,Centro de formação e educação,#EC2505,-38.47568220000001,-13.0076404
POINT (-38.4759092 -13.0032404),Escola Municipal Teodoro Sampaio,,Centro de formação e educação,#EC2505,-38.4759092,-13.0032404
POINT (-38.4763145 -13.004343),Escola Moranguinho e Sua Turma,,Centro de formação e educação,#EC2505,-38.4763145,-13.004343
POINT (-38.4738231 -13.0073446),Escola Municipal Santo André,,Centro de formação e educação,#EC2505,-38.4738231,-13.0073446
POINT (-38.4789235 -13.0076042),ESCOLA HORIZONTES DO SABER,,Centro de formação e educação,#EC2505,-38.4789235,-13.0076042
POINT (-38.4725851 -13.0051689),Escola Municipal Sao Pedro Nolasco,,Centro de formação e educação,#EC2505,-38.4725851,-13.0051689
POINT (-38.47837860000001 -13.0007335),Escola Municipal Cristo E Vida,,Centro de formação e educação,#EC2505,-38.47837860000001,-13.0007335
POINT (-38.4827439 -13.0060126),Escola Municipal Vale Das Pedrinhas,,Centro de formação e educação,#EC2505,-38.4827439,-13.0060126
POINT (-38.4776673 -13.0020845),Escola Municipal Artur De Sales,,Centro de formação e educação,#EC2505,-38.4776673,-13.0020845
POINT (-38.4746701 -13.0034551),Escola Municipal Artur De Sales,,Centro de formação e educação,#EC2505,-38.4746701,-13.0034551
POINT (-38.4956563 -13.001794),Colégio Engenho Velho Da Federação,,Centro de formação e educação,#EC2505,-38.4956563,-13.001794
POINT (-38.4951057 -12.9984423),Engenho Velho da Federação,,Centro de formação e educação,#EC2505,-38.4951057,-12.9984423
POINT (-38.4957457 -12.9955889),Escola Municipal Engenho Velho Da Federacao,,Centro de formação e educação,#EC2505,-38.4957457,-12.9955889
POINT (-38.4816957 -12.9942543),Escola Sol do Candeal,,Centro de formação e educação,#EC2505,-38.4816957,-12.9942543
POINT (-38.4820104 -12.9943481),Escola Emanuel,,Centro de formação e educação,#EC2505,-38.4820104,-12.9943481
POINT (-38.4839971 -12.9919247),Colégio Estadual Manoel Vitorino - Tempo Integral,,Centro de formação e educação,#EC2505,-38.4839971,-12.9919247
POINT (-38.4833571 -12.9964078),Centro Municipal De Educacao Infantil Virgem De La Almudena,,Centro de formação e educação,#EC2505,-38.4833571,-12.9964078
POINT (-38.4810284 -12.9935458),Reforço Escolar Recanto do Saber,,Centro de formação e educação,#EC2505,-38.4810284,-12.9935458
POINT (-38.4868945 -12.9950401),Colégio Bom Pastor,,Centro de formação e educação,#EC2505,-38.4868945,-12.9950401
POINT (-38.4822143 -12.995575),Escola Profissional de Músicos de Rua Pracatum,,Centro de formação e educação,#EC2505,-38.4822143,-12.995575
POINT (-38.4822215 -12.9952991),Pracatum Inglês,,Centro de formação e educação,#EC2505,-38.4822215,-12.9952991
POINT (-38.4814108 -12.995271),DAIANE FERREIRA ENGENHEIRA CIVIL,,Centro de formação e educação,#EC2505,-38.4814108,-12.995271
POINT (-38.50285929999999 -13.0055526),Colégio Estadual Evaristo Da Veiga - Tempo Integral,,Centro de formação e educação,#EC2505,-38.50285929999999,-13.0055526
POINT (-38.5032775 -13.0064128),Escola Municipal Sao Domingos Savio,,Centro de formação e educação,#EC2505,-38.5032775,-13.0064128
POINT (-38.5082661 -13.0062251),Centro de Educação Especial da Bahia CEEBA,,Centro de formação e educação,#EC2505,-38.5082661,-13.0062251
POINT (-38.5081047 -13.0099986),Colégio Carpe Diem - Ondina,,Centro de formação e educação,#EC2505,-38.5081047,-13.0099986
POINT (-38.5127854 -13.0093874),Escola Dorilândia,,Centro de formação e educação,#EC2505,-38.5127854,-13.0093874
POINT (-38.4676008 -12.9738133),Creche Escola Nossa Senhora Das Gracas,,Centro de formação e educação,#EC2505,-38.4676008,-12.9738133
POINT (-38.49805300000001 -12.9681137),Escola Nossa Senhora das Graças,,Centro de formação e educação,#EC2505,-38.49805300000001,-12.9681137
POINT (-38.4957853 -12.987485),Centro Municipal De Educacao Infantil Iacy Vaz Fagundes,,Centro de formação e educação,#EC2505,-38.4957853,-12.987485
POINT (-38.5185962 -12.9973029),CCAA Graça,,Centro de formação e educação,#EC2505,-38.5185962,-12.9973029
POINT (-38.5196007 -12.9979847),Pequenópolis,,Centro de formação e educação,#EC2505,-38.5196007,-12.9979847
POINT (-38.52140329999999 -12.9973808),inFlux Salvador Graça: Cursos de Inglês Espanhol Idiomas em Bahia,,Centro de formação e educação,#EC2505,-38.52140329999999,-12.9973808
POINT (-38.5252034 -12.9965535),Centro Municipal De Educacao Infantil Nossa Senhora Da Vitoria,,Centro de formação e educação,#EC2505,-38.5252034,-12.9965535
POINT (-38.52680959999999 -12.9978819),R.Teixeira Leal 10-G,,Centro de formação e educação,#EC2505,-38.52680959999999,-12.9978819
POINT (-38.522687 -13.0004767),Vila Zebalusky - Centro Infantil de Arte e Linguagem,,Centro de formação e educação,#EC2505,-38.522687,-13.0004767
POINT (-38.5230787 -13.0030383),Escola Kimimo,,Centro de formação e educação,#EC2505,-38.5230787,-13.0030383
POINT (-38.5253705 -13.0043366),Escola Pantheon,,Centro de formação e educação,#EC2505,-38.5253705,-13.0043366
POINT (-38.52628789999999 -13.0044878),Arte & Manha Escola e Creche,,Centro de formação e educação,#EC2505,-38.52628789999999,-13.0044878
POINT (-38.5217103 -13.0072684),Colégio Miró,,Centro de formação e educação,#EC2505,-38.5217103,-13.0072684
POINT (-38.52871359999999 -13.0088479),Escola Movimento - Aulas particulares de inglês espanhol português e redação,,Centro de formação e educação,#EC2505,-38.52871359999999,-13.0088479
POINT (-38.52815559999999 -13.0049395),IEM - Instituto de Educação Musical,,Centro de formação e educação,#EC2505,-38.52815559999999,-13.0049395
POINT (-38.5307388 -13.0054378),OGW Centro de Treinamento Esportivo,,Centro de formação e educação,#EC2505,-38.5307388,-13.0054378
POINT (-38.53278780000001 -13.0031312),Escolinha de futevôlei porto da barra: Team junior,,Centro de formação e educação,#EC2505,-38.53278780000001,-13.0031312
POINT (-38.5284433 -13.0015796),Equipe Bae,,Centro de formação e educação,#EC2505,-38.5284433,-13.0015796
POINT (-38.47799719999999 -12.9836646),Colégio Ponto Alto - Brotas e São Rafael,,Centro de formação e educação,#EC2505,-38.47799719999999,-12.9836646
POINT (-38.4946973 -12.9793465),Educandário Nova Geracao,,Centro de formação e educação,#EC2505,-38.4946973,-12.9793465
POINT (-38.49910389999999 -12.9807998),Colégio Resgate - Brotas,,Centro de formação e educação,#EC2505,-38.49910389999999,-12.9807998
POINT (-38.5005961 -12.9809431),Escola Municipal Visconde De Cairu De Brotas,,Centro de formação e educação,#EC2505,-38.5005961,-12.9809431
POINT (-38.4905697 -12.9891084),Escola Borboleta Pintora,,Centro de formação e educação,#EC2505,-38.4905697,-12.9891084
POINT (-38.4983413 -12.9909883),COLÉGIO ÓPERA,,Centro de formação e educação,#EC2505,-38.4983413,-12.9909883
POINT (-38.49194589999999 -12.9940789),Escola Arco-Íris,,Centro de formação e educação,#EC2505,-38.49194589999999,-12.9940789
POINT (-38.48316259999999 -12.9888837),Escola Ponto de Partida,,Centro de formação e educação,#EC2505,-38.48316259999999,-12.9888837
POINT (-38.4788086 -12.9812795),Escola Mundo Encantado,,Centro de formação e educação,#EC2505,-38.4788086,-12.9812795
POINT (-38.50047469999999 -13.0013485),Escola Casa Via Magia,,Centro de formação e educação,#EC2505,-38.50047469999999,-13.0013485
POINT (-38.50094889999999 -13.0025361),Escolinha Mundo dos Sonhos,,Centro de formação e educação,#EC2505,-38.50094889999999,-13.0025361
POINT (-38.49581839999999 -12.9996106),Escola Nossa Infância,,Centro de formação e educação,#EC2505,-38.49581839999999,-12.9996106
POINT (-38.50461689999999 -12.9977365),Escola Motivar,,Centro de formação e educação,#EC2505,-38.50461689999999,-12.9977365
POINT (-38.5103015 -12.9996338),Escola Politécnica da UFBA,,Centro de formação e educação,#EC2505,-38.5103015,-12.9996338
POINT (-38.505825 -12.9950447),Escola Ana Bela,,Centro de formação e educação,#EC2505,-38.505825,-12.9950447
POINT (-38.50097400000001 -12.9934737),Escol,,Centro de formação e educação,#EC2505,-38.50097400000001,-12.9934737
POINT (-38.512241 -12.9977854),Escola Municipal Professor Antonio Carlos Onofre,,Centro de formação e educação,#EC2505,-38.512241,-12.9977854
POINT (-38.50403389999999 -12.9922845),Escola Municipal Madre Judite,,Centro de formação e educação,#EC2505,-38.50403389999999,-12.9922845
POINT (-38.49129939999999 -12.9729916),Educandário Helita Vieira - Vila Laura,,Centro de formação e educação,#EC2505,-38.49129939999999,-12.9729916
POINT (-38.4914372 -12.9723575),Escola Risque e Rabisque,,Centro de formação e educação,#EC2505,-38.4914372,-12.9723575
POINT (-38.4908048 -12.9718667),Escola Experimental,,Centro de formação e educação,#EC2505,-38.4908048,-12.9718667
POINT (-38.4899445 -12.9716398),Escola Experimental Pré Escolar,,Centro de formação e educação,#EC2505,-38.4899445,-12.9716398
POINT (-38.49156939999999 -12.9716916),Escola APRIMORA,,Centro de formação e educação,#EC2505,-38.49156939999999,-12.9716916
POINT (-38.48794559999999 -12.9695204),ISO,,Centro de formação e educação,#EC2505,-38.48794559999999,-12.9695204
POINT (-38.4888871 -12.9701683),Colégio Estadual Frederico Costa,,Centro de formação e educação,#EC2505,-38.4888871,-12.9701683
POINT (-38.49193269999999 -12.9707211),Berçário e Escola Venha Mundo,,Centro de formação e educação,#EC2505,-38.49193269999999,-12.9707211
POINT (-38.486211 -12.975686),Escola Municipal Luiz Anselmo,,Centro de formação e educação,#EC2505,-38.486211,-12.975686
POINT (-38.51163159999999 -12.9820606),Escola Municipal Cosme De Farias,,Centro de formação e educação,#EC2505,-38.51163159999999,-12.9820606
POINT (-38.4889409 -12.9812631),Colegio Estadual Cosme De Farias,,Centro de formação e educação,#EC2505,-38.4889409,-12.9812631
POINT (-38.4901583 -12.9527088),Escola Municipal Pero Vaz Velho,,Centro de formação e educação,#EC2505,-38.4901583,-12.9527088
POINT (-38.488838 -12.9536399),Centro Educacional Tempestade de Esperança,,Centro de formação e educação,#EC2505,-38.488838,-12.9536399
POINT (-38.4875409 -12.9547278),Colegio Cidade,,Centro de formação e educação,#EC2505,-38.4875409,-12.9547278
POINT (-38.4865824 -12.9551343),Centro Educacional Carneiro Ribeiro - Classe II,,Centro de formação e educação,#EC2505,-38.4865824,-12.9551343
POINT (-38.4947028 -12.9583484),Escola Trenzinho da Alegria,,Centro de formação e educação,#EC2505,-38.4947028,-12.9583484
POINT (-38.4907232 -12.9518273),Centro Educacional Carneiro Ribeiro - Classe I,,Centro de formação e educação,#EC2505,-38.4907232,-12.9518273
POINT (-38.5070111 -12.9324412),SENAI Dendezeiros,,Centro de formação e educação,#EC2505,-38.5070111,-12.9324412
POINT (-38.4736574 -12.8700402),Escola Municipal de Periperi,,Centro de formação e educação,#EC2505,-38.4736574,-12.8700402
POINT (-38.467598 -12.8739133),Escola Municipal Mirantes De Periperi,,Centro de formação e educação,#EC2505,-38.467598,-12.8739133
POINT (-38.47688470000001 -12.865275),Escola Municipal Anfilófio de Carvalho professores,,Centro de formação e educação,#EC2505,-38.47688470000001,-12.865275
POINT (-38.4719818 -12.8670912),Escola Santo Inácio,,Centro de formação e educação,#EC2505,-38.4719818,-12.8670912
POINT (-38.4724148 -12.863898),Instituto Social Pindorama,,Centro de formação e educação,#EC2505,-38.4724148,-12.863898
POINT (-38.47158339999999 -12.8643356),Colégio Célestin Freinet,,Centro de formação e educação,#EC2505,-38.47158339999999,-12.8643356
POINT (-38.47050749999999 -12.8647349),Escola Bem Me Quer,,Centro de formação e educação,#EC2505,-38.47050749999999,-12.8647349
POINT (-38.4724715 -12.8655149),Colégio Viver Educação,,Centro de formação e educação,#EC2505,-38.4724715,-12.8655149
POINT (-38.4719818 -12.8670912),Colégio Estadual Nelson Mandela,,Centro de formação e educação,#EC2505,-38.4719818,-12.8670912
POINT (-38.47190819999999 -12.8666279),Creche e Pré-escola Primeiro Passo Periperi,,Centro de formação e educação,#EC2505,-38.47190819999999,-12.8666279
POINT (-38.4833224 -12.9020556),CENTRO EDUCACIONAL RAIMUNDO NONATO COSTA,,Centro de formação e educação,#EC2505,-38.4833224,-12.9020556
POINT (-38.4738069 -12.8969658),EBA - EDUCANDÁRIO BORBOLETA AZUL,,Centro de formação e educação,#EC2505,-38.4738069,-12.8969658
POINT (-38.4814497 -12.88978),escola barilandia,,Centro de formação e educação,#EC2505,-38.4814497,-12.88978
POINT (-38.47772889999999 -12.8899264),Colégio Estadual Josias De Almeida Melo,,Centro de formação e educação,#EC2505,-38.47772889999999,-12.8899264
POINT (-38.481098 -12.8916097),Colégio Jorge Amado,,Centro de formação e educação,#EC2505,-38.481098,-12.8916097
POINT (-38.4776995 -12.8910546),Escola Antonio Cordeiro,,Centro de formação e educação,#EC2505,-38.4776995,-12.8910546
POINT (-38.4863717 -12.8948767),Rua da areia plataforma,,Centro de formação e educação,#EC2505,-38.4863717,-12.8948767
POINT (-38.486968 -12.8975757),Centro Educacional Carvalho Pessoa,,Centro de formação e educação,#EC2505,-38.486968,-12.8975757
POINT (-38.48962459999999 -12.8994992),Escola Municipal de Plataforma,,Centro de formação e educação,#EC2505,-38.48962459999999,-12.8994992
POINT (-38.4925069 -12.9479243),Escola Municipal Piraja Da Silva,,Centro de formação e educação,#EC2505,-38.4925069,-12.9479243
POINT (-38.45844779999999 -12.903601),Escola Municipal Campinas De Piraja,,Centro de formação e educação,#EC2505,-38.45844779999999,-12.903601
POINT (-38.4659243 -12.9017788),Escola Municipal General Labatut,,Centro de formação e educação,#EC2505,-38.4659243,-12.9017788
POINT (-38.4652189 -12.9018108),Escola Teodoro Sampaio,,Centro de formação e educação,#EC2505,-38.4652189,-12.9018108
POINT (-38.4611758 -12.9019851),Escola Tio Patinhas,,Centro de formação e educação,#EC2505,-38.4611758,-12.9019851
POINT (-38.4597952 -12.8978933),Escola Municipal Profª Alexandrina Santos Pita,,Centro de formação e educação,#EC2505,-38.4597952,-12.8978933
POINT (-38.45231619999999 -12.8946627),Centro Educacional Evolução Infantil,,Centro de formação e educação,#EC2505,-38.45231619999999,-12.8946627
POINT (-38.45604679999999 -12.8931282),Colégio Estadual Cesare Casali,,Centro de formação e educação,#EC2505,-38.45604679999999,-12.8931282
POINT (-38.48061560000001 -12.9396307),Escola Dom Avelar Brandao Vilela,,Centro de formação e educação,#EC2505,-38.48061560000001,-12.9396307
POINT (-38.44911189999999 -12.9035137),Escola Municipal D Isabel Brandao Vilela,,Centro de formação e educação,#EC2505,-38.44911189999999,-12.9035137
POINT (-38.4493827 -12.903759),Colégio Estadual Conselheiro Vicente Pacheco De Oliveira,,Centro de formação e educação,#EC2505,-38.4493827,-12.903759
POINT (-38.44737360000001 -12.9046226),centro educacional ideal,,Centro de formação e educação,#EC2505,-38.44737360000001,-12.9046226
POINT (-38.444861 -12.9045253),Escola Passos Para O Futuro,,Centro de formação e educação,#EC2505,-38.444861,-12.9045253
POINT (-38.44776469999999 -12.9013221),Colégio estilo,,Centro de formação e educação,#EC2505,-38.44776469999999,-12.9013221
POINT (-38.44900989999999 -12.9031556),Centro Municipal De Educacao Infantil Anival Razoni Figueiredo,,Centro de formação e educação,#EC2505,-38.44900989999999,-12.9031556
POINT (-38.446804 -12.9019982),Dom Avelar,,Centro de formação e educação,#EC2505,-38.446804,-12.9019982
POINT (-38.445362 -12.902428),Escola Cantinho do Guri,,Centro de formação e educação,#EC2505,-38.445362,-12.902428
POINT (-38.44779289999999 -12.9008742),Clube de Mães de Dom Avelar - Educandário e Creche Renovação,,Centro de formação e educação,#EC2505,-38.44779289999999,-12.9008742
POINT (-38.4380123 -12.9061299),Escola Municipal de Castelo Branco,,Centro de formação e educação,#EC2505,-38.4380123,-12.9061299
POINT (-38.442459 -12.90421),Colégio Adventista de Castelo Branco,,Centro de formação e educação,#EC2505,-38.442459,-12.90421
POINT (-38.4422199 -12.9039898),Escola Classe-Centro de Aprendizagem,,Centro de formação e educação,#EC2505,-38.4422199,-12.9039898
POINT (-38.4407971 -12.9027663),Escola boa semente,,Centro de formação e educação,#EC2505,-38.4407971,-12.9027663
POINT (-38.4404312 -12.9035006),Escola Municipal Arlete Magalhães,,Centro de formação e educação,#EC2505,-38.4404312,-12.9035006
POINT (-38.4349921 -12.9084226),Centro Municipal De Educacao Infantil Unidos De Castelo Branco,,Centro de formação e educação,#EC2505,-38.4349921,-12.9084226
POINT (-38.40076919999999 -12.8992899),Escola Municipal Fazenda Grande Ii Ministro Carlos Santana,,Centro de formação e educação,#EC2505,-38.40076919999999,-12.8992899
POINT (-38.40200759999999 -12.9004121),Colégio Superior LTDA,,Centro de formação e educação,#EC2505,-38.40200759999999,-12.9004121
POINT (-38.39423219999999 -12.9082263),Centro Educacional Titânia,,Centro de formação e educação,#EC2505,-38.39423219999999,-12.9082263
POINT (-38.41135149999999 -12.89519),Educandário Novo Ensino - ENE,,Centro de formação e educação,#EC2505,-38.41135149999999,-12.89519
POINT (-38.4214524 -12.8942762),Escola Municipal Elysio Athayde,,Centro de formação e educação,#EC2505,-38.4214524,-12.8942762
POINT (-38.42404880000001 -12.8982319),Colégio Estadual Edvaldo Brandao Correia,,Centro de formação e educação,#EC2505,-38.42404880000001,-12.8982319
POINT (-38.41159349999999 -12.8861447),Escola Municipal De Cajazeiras Xi,,Centro de formação e educação,#EC2505,-38.41159349999999,-12.8861447
POINT (-38.40488699999999 -12.8808827),ESCOLA RECANTO FLORESTAL,,Centro de formação e educação,#EC2505,-38.40488699999999,-12.8808827
POINT (-38.4160113 -12.8852134),Escola Municipal Professor Manoel De Almeida Cruz,,Centro de formação e educação,#EC2505,-38.4160113,-12.8852134
POINT (-38.4065782 -12.89481),Colégio Evolução,,Centro de formação e educação,#EC2505,-38.4065782,-12.89481
POINT (-38.3623829 -12.9154229),Escola Santos Nobre,,Centro de formação e educação,#EC2505,-38.3623829,-12.9154229
POINT (-38.3664196 -12.9148502),Escola Municipal Pe Manuel Correia De Souza,,Centro de formação e educação,#EC2505,-38.3664196,-12.9148502
POINT (-38.36686389999999 -12.917938),Colégio Yeshua,,Centro de formação e educação,#EC2505,-38.36686389999999,-12.917938
POINT (-38.3639524 -12.917929),Colégio Fischer,,Centro de formação e educação,#EC2505,-38.3639524,-12.917929
POINT (-38.3633259 -12.9191591),Escola Projeção,,Centro de formação e educação,#EC2505,-38.3633259,-12.9191591
POINT (-38.36450989999999 -12.9170001),Escola Municipal Celia Nogueira,,Centro de formação e educação,#EC2505,-38.36450989999999,-12.9170001
POINT (-38.3638283 -12.9165537),Colégio Estadual Raul Sá,,Centro de formação e educação,#EC2505,-38.3638283,-12.9165537
POINT (-38.3627322 -12.916064),Escola Líderes do Amanhã,,Centro de formação e educação,#EC2505,-38.3627322,-12.916064
POINT (-38.3614809 -12.9162445),Colégio Estadual Pinto de Aguiar,,Centro de formação e educação,#EC2505,-38.3614809,-12.9162445
POINT (-38.3638883 -12.9123893),Escola Ana Maria Poppovic,,Centro de formação e educação,#EC2505,-38.3638883,-12.9123893
POINT (-38.4216588 -12.9157471),Escola Maria Yasmim,,Centro de formação e educação,#EC2505,-38.4216588,-12.9157471
POINT (-38.4173664 -12.917656),Colégio Evo,,Centro de formação e educação,#EC2505,-38.4173664,-12.917656
POINT (-38.4215945 -12.9192494),Escola Municipal Profª Irene Da Silva Costa Santos,,Centro de formação e educação,#EC2505,-38.4215945,-12.9192494
POINT (-38.4196807 -12.9094661),CMEI Antonio Noberto B C Filho,,Centro de formação e educação,#EC2505,-38.4196807,-12.9094661
POINT (-38.419136 -12.909593),Escola Tecendo O Saber,,Centro de formação e educação,#EC2505,-38.419136,-12.909593
POINT (-38.42002009999999 -12.9109316),Empresarial Arena jardim,,Centro de formação e educação,#EC2505,-38.42002009999999,-12.9109316
POINT (-38.4209313 -12.9136898),Educandário Costa Figueiredo,,Centro de formação e educação,#EC2505,-38.4209313,-12.9136898
POINT (-38.419398 -12.9145607),ESCOLA DE EDUCACAO CORDEIRINHO DE CRISTO,,Centro de formação e educação,#EC2505,-38.419398,-12.9145607
POINT (-38.41895 -12.912774),Escola Espaço Infantil,,Centro de formação e educação,#EC2505,-38.41895,-12.912774
POINT (-38.4179387 -12.9121353),Jardim Nova Esperanca,,Centro de formação e educação,#EC2505,-38.4179387,-12.9121353
POINT (-38.4359724 -12.9284005),Escola Municipal São Marcos,,Centro de formação e educação,#EC2505,-38.4359724,-12.9284005
POINT (-38.42436129999999 -12.9358218),Colégio São Rafael,,Centro de formação e educação,#EC2505,-38.42436129999999,-12.9358218
POINT (-38.4420013 -12.9208059),Escola Municipal De Sao Marcos,,Centro de formação e educação,#EC2505,-38.4420013,-12.9208059
POINT (-38.4417259 -12.9232618),Escola Marissol,,Centro de formação e educação,#EC2505,-38.4417259,-12.9232618
POINT (-38.4346068 -12.9249321),Creche E Pre Escola Primeiro Passo Sao Marcos,,Centro de formação e educação,#EC2505,-38.4346068,-12.9249321
POINT (-38.4384822 -12.9427156),Escola Municipal Novo Horizonte,,Centro de formação e educação,#EC2505,-38.4384822,-12.9427156
POINT (-38.4398069 -12.938225),Colégio SuperAção - A Confiança que você procura e o Carinho que seu filho merece,,Centro de formação e educação,#EC2505,-38.4398069,-12.938225
POINT (-38.4376621 -12.9431518),ESCOLA WALDEMAR DOCÍLIO NOVO HORIZONTE,,Centro de formação e educação,#EC2505,-38.4376621,-12.9431518
POINT (-38.4645744 -12.9333548),Escola Municipal São Miguel,,Centro de formação e educação,#EC2505,-38.4645744,-12.9333548
POINT (-38.4697019 -12.9435261),Escola tempo do saber,,Centro de formação e educação,#EC2505,-38.4697019,-12.9435261
POINT (-38.4595577 -12.9365542),Centro Educacional Jardim Pampulha,,Centro de formação e educação,#EC2505,-38.4595577,-12.9365542
POINT (-38.4557611 -12.9277802),GEOP - Grupo Especializado em Operações Penitenciárias,,Centro de formação e educação,#EC2505,-38.4557611,-12.9277802
POINT (-38.46164559999999 -12.9308428),Centro Educacional Donald Viana,,Centro de formação e educação,#EC2505,-38.46164559999999,-12.9308428
POINT (-38.35870999999999 -12.9324739),Escola Aquarela de Itapuã,,Centro de formação e educação,#EC2505,-38.35870999999999,-12.9324739
POINT (-38.3471266 -12.9499956),Escola Mundo,,Centro de formação e educação,#EC2505,-38.3471266,-12.9499956
POINT (-38.3572321 -12.929392),Colégio Maria Quitéria,,Centro de formação e educação,#EC2505,-38.3572321,-12.929392
POINT (-38.3697509 -12.9364549),Escola Municipal Do Pescador,,Centro de formação e educação,#EC2505,-38.3697509,-12.9364549
POINT (-38.36410969999999 -12.9366093),Colégio Yolanda Rocha,,Centro de formação e educação,#EC2505,-38.36410969999999,-12.9366093
POINT (-38.3623316 -12.9395917),Casa Sol da Vida - Escola Itapuã,,Centro de formação e educação,#EC2505,-38.3623316,-12.9395917
POINT (-38.3632868 -12.9419428),Colégio Educar de Itapuã,,Centro de formação e educação,#EC2505,-38.3632868,-12.9419428
POINT (-38.3657684 -12.9421453),Escola Municipal Cidade Vitoria Da Conquista,,Centro de formação e educação,#EC2505,-38.3657684,-12.9421453
POINT (-38.3678436 -12.9404277),Cevilha,,Centro de formação e educação,#EC2505,-38.3678436,-12.9404277
POINT (-38.36800099999999 -12.949952),Colégio Sophia,,Centro de formação e educação,#EC2505,-38.36800099999999,-12.949952
POINT (-38.37926579999999 -12.9510682),Colégio ideal Sênior,,Centro de formação e educação,#EC2505,-38.37926579999999,-12.9510682
POINT (-38.39749079999999 -12.9594923),Escola Colmeia - Jaguaribe,,Centro de formação e educação,#EC2505,-38.39749079999999,-12.9594923
POINT (-38.3812382 -12.9353331),Escola Universo Interativo,,Centro de formação e educação,#EC2505,-38.3812382,-12.9353331
POINT (-38.382875 -12.9377361),Vila Infância Educação Infantil,,Centro de formação e educação,#EC2505,-38.382875,-12.9377361
POINT (-38.3867864 -12.9402231),Escola SESI Djalma Pessoa,,Centro de formação e educação,#EC2505,-38.3867864,-12.9402231
POINT (-38.38419100000001 -12.9457344),Escola Concept - Salvador,,Centro de formação e educação,#EC2505,-38.38419100000001,-12.9457344
POINT (-38.3803457 -12.9453526),Escola Municipal Teresa Cristina,,Centro de formação e educação,#EC2505,-38.3803457,-12.9453526
POINT (-38.3762631 -12.9477943),Escola Interlúdica,,Centro de formação e educação,#EC2505,-38.3762631,-12.9477943
POINT (-38.3773423 -12.9470118),Escola Villa Conheço,,Centro de formação e educação,#EC2505,-38.3773423,-12.9470118
POINT (-38.3804968 -12.9507401),Colégio Aprendiz,,Centro de formação e educação,#EC2505,-38.3804968,-12.9507401
POINT (-38.3769603 -12.9260329),Escola Municipal Nova Do Bairro Da Paz,,Centro de formação e educação,#EC2505,-38.3769603,-12.9260329
POINT (-38.3811852 -12.9376599),Colégio Estadual Mestre Paulo dos Anjos,,Centro de formação e educação,#EC2505,-38.3811852,-12.9376599
POINT (-38.3731331 -12.9258003),Escola CEI Bairro da Paz,,Centro de formação e educação,#EC2505,-38.3731331,-12.9258003
POINT (-38.3776718 -12.9277796),Centro De Educacao Infantil Cristo Redentor,,Centro de formação e educação,#EC2505,-38.3776718,-12.9277796
POINT (-38.3778192 -12.9296095),Ilê axé Oluayê Onisogum,,Centro de formação e educação,#EC2505,-38.3778192,-12.9296095
POINT (-38.3765757 -12.9309885),Creche Escola,,Centro de formação e educação,#EC2505,-38.3765757,-12.9309885
POINT (-38.3761373 -12.9324094),C.L.C Variegista,,Centro de formação e educação,#EC2505,-38.3761373,-12.9324094
POINT (-38.3763263 -12.9319896),Escola Municipal Nossa Senhora Da Paz,,Centro de formação e educação,#EC2505,-38.3763263,-12.9319896
POINT (-38.3787739 -12.9340821),Educandario Sementes Da Bem Me Quer,,Centro de formação e educação,#EC2505,-38.3787739,-12.9340821
POINT (-38.3704501 -12.9343245),Creche E Pre Escola Primeiro Passo Bairro Da Paz,,Centro de formação e educação,#EC2505,-38.3704501,-12.9343245
POINT (-38.3460085 -12.9308576),Escola Flamengo Stella Maris,,Centro de formação e educação,#EC2505,-38.3460085,-12.9308576
POINT (-38.3402591 -12.9384665),Colégio Marízia Maior,,Centro de formação e educação,#EC2505,-38.3402591,-12.9384665
POINT (-38.3304492 -12.9358327),Colégio Omega,,Centro de formação e educação,#EC2505,-38.3304492,-12.9358327
POINT (-38.31714079999999 -12.9255788),Escola Sulamericana,,Centro de formação e educação,#EC2505,-38.31714079999999,-12.9255788
POINT (-38.341765 -12.940735),Escola Ceama,,Centro de formação e educação,#EC2505,-38.341765,-12.940735
POINT (-38.33393809999999 -12.9409949),Escola Recreasol - Berçário e Educação Infantil,,Centro de formação e educação,#EC2505,-38.33393809999999,-12.9409949
POINT (-38.3313952 -12.936329),Escola Espaço Criativo,,Centro de formação e educação,#EC2505,-38.3313952,-12.936329
POINT (-38.3313791 -12.9368743),Escola Bacuri Jatobá,,Centro de formação e educação,#EC2505,-38.3313791,-12.9368743
POINT (-38.42149819999999 -12.9335638),Colégio Estadual Vale dos Lagos,,Centro de formação e educação,#EC2505,-38.42149819999999,-12.9335638
POINT (-38.4086494 -12.9174537),Colégio Estadual Vera Lux,,Centro de formação e educação,#EC2505,-38.4086494,-12.9174537
POINT (-38.411857 -12.9242515),Creche E Pre Escola Primeiro Passo Nova Brasilia,,Centro de formação e educação,#EC2505,-38.411857,-12.9242515
POINT (-38.459774 -12.8479747),Escola Municipal Professor Antonio Pithon Pinto,,Centro de formação e educação,#EC2505,-38.459774,-12.8479747
POINT (-38.4405205 -12.8522458),Escola Municipal Nossa Senhora Aparecida,,Centro de formação e educação,#EC2505,-38.4405205,-12.8522458
POINT (-38.43882239999999 -12.8597391),CENTRO EDUCACIONAL VITÓRIA,,Centro de formação e educação,#EC2505,-38.43882239999999,-12.8597391
POINT (-38.3644959 -12.946005),Escola Calasans Neto,,Centro de formação e educação,#EC2505,-38.3644959,-12.946005
POINT (-38.3604966 -12.9373255),Educandario Rumo ao Futuro,,Centro de formação e educação,#EC2505,-38.3604966,-12.9373255
POINT (-38.3570722 -12.9338831),Escola Anjo Azul e Colégio Geração Positiva,,Centro de formação e educação,#EC2505,-38.3570722,-12.9338831
POINT (-38.35786849999999 -12.9332094),Colégio Estadual Marechal Mascarenhas De Morais,,Centro de formação e educação,#EC2505,-38.35786849999999,-12.9332094
POINT (-38.3897535 -12.8950186),Instituto Pedagógico Neemias,,Centro de formação e educação,#EC2505,-38.3897535,-12.8950186
POINT (-38.3830262 -12.9034455),Educandário Sant'anna - Escola do Maternal ao 5º ano com Integral em Cajazeiras,,Centro de formação e educação,#EC2505,-38.3830262,-12.9034455
POINT (-38.439882 -12.862845),Escola Municipal Sao Francisco De Assis,,Centro de formação e educação,#EC2505,-38.439882,-12.862845
POINT (-38.4365768 -12.8629539),Escola Moderninha Ltda,,Centro de formação e educação,#EC2505,-38.4365768,-12.8629539
POINT (-38.4366607 -12.8644132),Colegio Estadual Professora Noemia Rego,,Centro de formação e educação,#EC2505,-38.4366607,-12.8644132
POINT (-38.4354137 -12.8659204),Centro Municipal De Educacao Infantil Csu Joao Paulo I,,Centro de formação e educação,#EC2505,-38.4354137,-12.8659204
POINT (-38.4382787 -12.9801356),Centro Educacional Crescer Melhor,,Centro de formação e educação,#EC2505,-38.4382787,-12.9801356
POINT (-38.4272778 -12.9750852),Colégio Interativo,,Centro de formação e educação,#EC2505,-38.4272778,-12.9750852
POINT (-38.4340658 -12.974885),Escola Creche Pedacinho do Sol,,Centro de formação e educação,#EC2505,-38.4340658,-12.974885
POINT (-38.4334597 -12.9735839),Centro Municipal De Educacao Infantil Uniao Da Boca Do Rio,,Centro de formação e educação,#EC2505,-38.4334597,-12.9735839
POINT (-38.4383494 -12.9789551),Escola Estrela da Manhã,,Centro de formação e educação,#EC2505,-38.4383494,-12.9789551
POINT (-38.4311273 -12.9795799),Colégio Gileade,,Centro de formação e educação,#EC2505,-38.4311273,-12.9795799
POINT (-38.4299821 -12.9784025),Colégio Magister,,Centro de formação e educação,#EC2505,-38.4299821,-12.9784025
POINT (-38.4263825 -12.9785398),Escola Laboratorio Escolab Boca Do Rio,,Centro de formação e educação,#EC2505,-38.4263825,-12.9785398
POINT (-38.4262192 -12.9779502),Colégio Montessoriano,,Centro de formação e educação,#EC2505,-38.4262192,-12.9779502
POINT (-38.42629829999999 -12.9783133),IMEJA,,Centro de formação e educação,#EC2505,-38.42629829999999,-12.9783133
POINT (-38.4280851 -12.902902),Centro Municipal De Educacao Infantil Jose Renato Monteiro Lobato,,Centro de formação e educação,#EC2505,-38.4280851,-12.902902
POINT (-38.4719766 -12.9068639),Escola Municipal Bela Vista Do Lobato,,Centro de formação e educação,#EC2505,-38.4719766,-12.9068639
POINT (-38.4760008 -12.9190802),Escola Municipal Engenheiro Gilberto Pires Marinho,,Centro de formação e educação,#EC2505,-38.4760008,-12.9190802
POINT (-38.485594 -12.9222543),Colégio da Policia Militar - Unidade Lobato,,Centro de formação e educação,#EC2505,-38.485594,-12.9222543
POINT (-38.4761972 -12.9188793),Escola Alzemira Borges - Educação Infantil ao Fundamental II em Salvador,,Centro de formação e educação,#EC2505,-38.4761972,-12.9188793
POINT (-38.48502169999999 -12.9248892),Centro Educional Cuidar - Lobato,,Centro de formação e educação,#EC2505,-38.48502169999999,-12.9248892
POINT (-38.4873301 -12.924975),Centro Municipal De Educacao Infantil Mario Altenfelder,,Centro de formação e educação,#EC2505,-38.4873301,-12.924975
POINT (-38.48443219999999 -12.925498),Escola Araújo Silva,,Centro de formação e educação,#EC2505,-38.48443219999999,-12.925498
POINT (-38.48394649999999 -12.9242162),Escola Municipal Santa Luzia Do Lobato,,Centro de formação e educação,#EC2505,-38.48394649999999,-12.9242162
POINT (-38.42086149999999 -12.8931137),Escola Estadual Naomar Alcântara,,Centro de formação e educação,#EC2505,-38.42086149999999,-12.8931137
POINT (-38.42261549999999 -12.8926064),Colégio Estadual Batista Neves,,Centro de formação e educação,#EC2505,-38.42261549999999,-12.8926064
POINT (-38.4067932 -12.9095586),Escola Bambino De Cajazeiras,,Centro de formação e educação,#EC2505,-38.4067932,-12.9095586
POINT (-38.3916697 -12.8948573),Colégio Alternativo Cajazeiras,,Centro de formação e educação,#EC2505,-38.3916697,-12.8948573
POINT (-38.45498069999999 -12.9732917),Escola Municipal De Pernambues,,Centro de formação e educação,#EC2505,-38.45498069999999,-12.9732917
POINT (-38.4686002 -12.9643586),Colégio Maria Câncio de Souza,,Centro de formação e educação,#EC2505,-38.4686002,-12.9643586
POINT (-38.4682287 -12.9660145),Escola Educando Com Amor,,Centro de formação e educação,#EC2505,-38.4682287,-12.9660145
POINT (-38.4636783 -12.965585),CEMJ Centro Educacional Maria José,,Centro de formação e educação,#EC2505,-38.4636783,-12.965585
POINT (-38.46321499999999 -12.9687047),Escola Municipal Hildete Bahia De Souza,,Centro de formação e educação,#EC2505,-38.46321499999999,-12.9687047
POINT (-38.4587973 -12.9690211),Escola Criart,,Centro de formação e educação,#EC2505,-38.4587973,-12.9690211
POINT (-38.4571901 -12.9685403),Centro Educacional Alegria do Aprender,,Centro de formação e educação,#EC2505,-38.4571901,-12.9685403
POINT (-38.4618104 -12.9721845),Centro Educacional Cremilda Azevedo / CECA / Escola em Pernambués,,Centro de formação e educação,#EC2505,-38.4618104,-12.9721845
POINT (-38.45647779999999 -12.9713567),ESCOLA MUNDO FELIZ,,Centro de formação e educação,#EC2505,-38.45647779999999,-12.9713567
POINT (-38.471225 -12.971552),Colégio Estadual Kleber Pacheco,,Centro de formação e educação,#EC2505,-38.471225,-12.971552
POINT (-38.47083010000001 -12.9716996),Escola Estadual Professora Mariinha Tavares,,Centro de formação e educação,#EC2505,-38.47083010000001,-12.9716996
POINT (-38.4400387 -12.9540018),Colégio Atlântico,,Centro de formação e educação,#EC2505,-38.4400387,-12.9540018
POINT (-38.4620869 -12.9442221),Escola Municipal Cabula I,,Centro de formação e educação,#EC2505,-38.4620869,-12.9442221
POINT (-38.4608763 -12.953217),Colégio São Lázaro,,Centro de formação e educação,#EC2505,-38.4608763,-12.953217
POINT (-38.468112 -12.9604821),Colégio Favo,,Centro de formação e educação,#EC2505,-38.468112,-12.9604821
POINT (-38.465977 -12.9615443),Centro Educacional Luzane,,Centro de formação e educação,#EC2505,-38.465977,-12.9615443
POINT (-38.4547264 -12.9573938),Colégio Estadual Governador Roberto Santos,,Centro de formação e educação,#EC2505,-38.4547264,-12.9573938
POINT (-38.44068209999999 -12.9547131),Colégio Estadual Heitor Villa Lobos,,Centro de formação e educação,#EC2505,-38.44068209999999,-12.9547131
POINT (-38.43754039999999 -12.9542688),Escola Municipal Do Alto Da Cachoeirinha Nelson Maleiro,,Centro de formação e educação,#EC2505,-38.43754039999999,-12.9542688
POINT (-38.4355509 -12.9552621),Colégio Aguiar,,Centro de formação e educação,#EC2505,-38.4355509,-12.9552621
POINT (-38.4364352 -12.9573238),Centro Escolar Hemariel,,Centro de formação e educação,#EC2505,-38.4364352,-12.9573238
POINT (-38.45309099999999 -12.9413699),Escola Municipal Maria Felipa,,Centro de formação e educação,#EC2505,-38.45309099999999,-12.9413699
POINT (-38.4571809 -12.9425182),Colégio Estadual Professora Maria Bernadete Brandão,,Centro de formação e educação,#EC2505,-38.4571809,-12.9425182
POINT (-38.4578903 -12.9441721),Escola Municipal Profª Anfrisia Santiago,,Centro de formação e educação,#EC2505,-38.4578903,-12.9441721
POINT (-38.4595163 -12.9500826),ESCOLA MUNICIPAL ALVARO DA FRANCA ROCHA,,Centro de formação e educação,#EC2505,-38.4595163,-12.9500826
POINT (-38.4564244 -12.9451268),Escola Dória Reis,,Centro de formação e educação,#EC2505,-38.4564244,-12.9451268
POINT (-38.45629410000001 -12.9435729),EDUCANDÁRIO PINTO DE SOUZA,,Centro de formação e educação,#EC2505,-38.45629410000001,-12.9435729
POINT (-38.45308569999999 -12.9413042),Centro Educacional Natividade,,Centro de formação e educação,#EC2505,-38.45308569999999,-12.9413042
POINT (-38.38982499999999 -12.8978388),Hospital Municipal de Salvador (HMS),,Hospital,#F12F71,-38.38982499999999,-12.8978388
POINT (-38.4506214 -12.9876887),Hospital da Bahia (HBA),,Hospital,#F12F71,-38.4506214,-12.9876887
POINT (-38.5160595 -12.9979088),Hospital Santo Amaro (HSA),,Hospital,#F12F71,-38.5160595,-12.9979088
POINT (-38.4302432 -12.9290754),Hospital São Rafael (HSR),,Hospital,#F12F71,-38.4302432,-12.9290754
POINT (-38.4805858 -13.0014961),Hospital Aliança (HA),,Hospital,#F12F71,-38.4805858,-13.0014961
POINT (-38.5114315 -12.9251253),Hospital da Sagrada Família (HSF),,Hospital,#F12F71,-38.5114315,-12.9251253
POINT (-38.4887888 -12.9899647),Hospital de Brotas,,Hospital,#F12F71,-38.4887888,-12.9899647
POINT (-38.4858162 -12.9587554),Hospital Especializado Octávio Mangabeira (HEOM),,Hospital,#F12F71,-38.4858162,-12.9587554
POINT (-38.4505951 -12.9554436),Hospital Geral Roberto Santos (HGRS),,Hospital,#F12F71,-38.4505951,-12.9554436
POINT (-38.50318350000001 -12.9717523),Hospital Santa Izabel,,Hospital,#F12F71,-38.50318350000001,-12.9717523
POINT (-38.38692079999999 -12.9392813),Instituto SESI de Saúde e Segurança no Trabalho,,Hospital,#F12F71,-38.38692079999999,-12.9392813
POINT (-38.4502824 -12.9840209),SESI Bahia,,Hospital,#F12F71,-38.4502824,-12.9840209
POINT (-38.3867864 -12.9402231),Escola SESI Djalma Pessoa,,Hospital,#F12F71,-38.3867864,-12.9402231
POINT (-38.502586 -12.9244832),Escola SESI Comendador Bernardo Martins Catharino,,Hospital,#F12F71,-38.502586,-12.9244832
POINT (-38.47542929999999 -12.9507183),Escola SESI Reitor Miguel Calmon (SESI Retiro),,Hospital,#F12F71,-38.47542929999999,-12.9507183
POINT (-38.5024178 -12.9237487),Centro Cultural SESI Casa Branca,,Hospital,#F12F71,-38.5024178,-12.9237487
POINT (-38.4810893 -12.9469689),UPA 24h San Martin,,Hospital,#F12F71,-38.4810893,-12.9469689
POINT (-38.4801327 -12.9865128),UPA Brotas,,Hospital,#F12F71,-38.4801327,-12.9865128
POINT (-38.4609509 -12.9265608),UPA Pirajá / Santo Inácio,,Hospital,#F12F71,-38.4609509,-12.9265608
POINT (-38.4757889 -12.9353774),UPA São Caetano,,Hospital,#F12F71,-38.4757889,-12.9353774
POINT (-38.4872509 -12.9590152),UPA Pau miudo - 16º Centro de Saúde Maria Conceição Imbassahy,,Hospital,#F12F71,-38.4872509,-12.9590152
POINT (-38.4727809 -12.8680588),UPA Periperi,,Hospital,#F12F71,-38.4727809,-12.8680588
POINT (-38.4319833 -12.9732661),UPA Imbuí,,Hospital,#F12F71,-38.4319833,-12.9732661
POINT (-38.3644306 -12.9070827),UPA Parque São Cristovão,,Hospital,#F12F71,-38.3644306,-12.9070827
POINT (-38.3663472 -12.9489895),UPA Dr. Hélio Machado,,Hospital,#F12F71,-38.3663472,-12.9489895
POINT (-38.5117741 -12.9898479),UPA Vale dos Barris,,Hospital,#F12F71,-38.5117741,-12.9898479
POINT (-38.40665730000001 -12.9027949),CAPS Ii - Nise Da Silveira,,Hospital,#F12F71,-38.40665730000001,-12.9027949
POINT (-38.4706007 -12.9248727),CAPS AD III Gey Espinheira,,Hospital,#F12F71,-38.4706007,-12.9248727
POINT (-38.5004697 -12.9855937),CAPS II Aristides Novis,,Hospital,#F12F71,-38.5004697,-12.9855937
POINT (-38.3283025 -12.8899059),CAPS AD Lauro de Freitas,,Hospital,#F12F71,-38.3283025,-12.8899059
POINT (-38.4647338 -12.9687564),CAPS Ad Pernambues,,Hospital,#F12F71,-38.4647338,-12.9687564
POINT (-38.4831891 -12.9522649),CAPS II Liberdade (ADULTO),,Hospital,#F12F71,-38.4831891,-12.9522649
POINT (-38.3281122 -12.891182),Caps Ad Santo Amaro De Ipitanga,,Hospital,#F12F71,-38.3281122,-12.891182
POINT (-38.4609 -12.9710844),Centro de Saúde de Pernambués Dr. Edison Teixeira Barbosa,,Hospital,#F12F71,-38.4609,-12.9710844
POINT (-38.43442 -12.9246672),Unidade de Saúde da Família São Marcos,,Hospital,#F12F71,-38.43442,-12.9246672
POINT (-38.4305088 -12.9353408),Unidade de Saúde da Família Gal Costa,,Hospital,#F12F71,-38.4305088,-12.9353408
POINT (-38.5135579 -12.9716953),Secretaria Municipal De Saúde De Salvador,,Hospital,#F12F71,-38.5135579,-12.9716953
POINT (-38.3360001 -12.8920266),Unidade de Saúde da Família São Judas Tadeu,,Hospital,#F12F71,-38.3360001,-12.8920266
POINT (-38.4297485 -12.963141),Unidade de Saúde da Família Imbuí (USF IMBUÍ),,Hospital,#F12F71,-38.4297485,-12.963141
POINT (-38.3222993 -12.8903896),Policlinica Mais Saúde,,Hospital,#F12F71,-38.3222993,-12.8903896
POINT (-38.44680779999999 -12.9457083),Clinica Saúde da Família,,Hospital,#F12F71,-38.44680779999999,-12.9457083
POINT (-38.49433409999999 -12.95732),Clínica Saúde +,,Hospital,#F12F71,-38.49433409999999,-12.95732
POINT (-38.42207949999999 -12.8896327),Hospital Professor Eládio Lassére (HPEL),,Hospital,#F12F71,-38.42207949999999,-12.8896327
POINT (-38.45678270000001 -12.8648584),Hospital do Subúrbio,,Hospital,#F12F71,-38.45678270000001,-12.8648584
POINT (-38.51367219999999 -13.0005961),Mercado Central,,Mercado,#31838F,-38.51367219999999,-13.0005961
POINT (-38.5196196 -12.9867891),Supermercado Novo Varejo em Salvador Mercado em Politeama Mercado Delivery,,Mercado,#31838F,-38.5196196,-12.9867891
POINT (-38.5028131 -13.0077813),Mercado do Bonfim,,Mercado,#31838F,-38.5028131,-13.0077813
POINT (-38.4767581 -13.0040024),Mercado Preço Baixo,,Mercado,#31838F,-38.4767581,-13.0040024
POINT (-38.420282 -12.9721098),Mercado da Família,,Mercado,#31838F,-38.420282,-12.9721098
POINT (-38.4991126 -13.009974),Mercado Padaria Vila Matos,,Mercado,#31838F,-38.4991126,-13.009974
POINT (-38.4964058 -12.9352995),Mercado Novo,,Mercado,#31838F,-38.4964058,-12.9352995
POINT (-38.511648 -12.929278),Mercado Boa Viagem,,Mercado,#31838F,-38.511648,-12.929278
POINT (-38.3393455 -12.9381513),Mercado da Praça,,Mercado,#31838F,-38.3393455,-12.9381513
POINT (-38.4575014 -12.9682702),Mercado Bom Dia,,Mercado,#31838F,-38.4575014,-12.9682702
POINT (-38.4288558 -12.9779348),Atakarejo - Boca do Rio,,Mercado,#31838F,-38.4288558,-12.9779348
POINT (-38.3787417 -12.9527976),Atakarejo - Piatã,,Mercado,#31838F,-38.3787417,-12.9527976
POINT (-38.4705608 -12.9823185),Atakadão Atakarejo,,Mercado,#31838F,-38.4705608,-12.9823185
POINT (-38.4137503 -12.9400713),Atakarejo - Paralela,,Mercado,#31838F,-38.4137503,-12.9400713
POINT (-38.4606712 -12.949073),Atakarejo - Cabula,,Mercado,#31838F,-38.4606712,-12.949073
POINT (-38.5012657 -12.9476874),Atakadão Atakarejo,,Mercado,#31838F,-38.5012657,-12.9476874
POINT (-38.45784829999999 -12.9746545),Atakarejo - Pernambués,,Mercado,#31838F,-38.45784829999999,-12.9746545
POINT (-38.3088011 -12.877192),Atakarejo - Lauro de Freitas,,Mercado,#31838F,-38.3088011,-12.877192
POINT (-38.4443717 -12.9081089),Atakadão Atakarejo,,Mercado,#31838F,-38.4443717,-12.9081089
POINT (-38.4814871 -12.9477377),Atakadão Atakarejo,,Mercado,#31838F,-38.4814871,-12.9477377
POINT (-38.4133489 -12.9294688),Atacadão - Canabrava,,Mercado,#31838F,-38.4133489,-12.9294688
POINT (-38.5105647 -12.9960486),Atacadão Garibaldi,,Mercado,#31838F,-38.5105647,-12.9960486
POINT (-38.4744902 -12.9905455),Atacadão - Salvador ACM,,Mercado,#31838F,-38.4744902,-12.9905455
POINT (-38.4582002 -12.9769571),Atacadão - Salvador Iguatemi,,Mercado,#31838F,-38.4582002,-12.9769571
POINT (-38.4039059 -12.903849),Atacadão - Cajazeiras,,Mercado,#31838F,-38.4039059,-12.903849
POINT (-38.4613547 -12.9526921),Atacadão - Salvador Cabula,,Mercado,#31838F,-38.4613547,-12.9526921
POINT (-38.32571009999999 -12.8913757),Atacadão - Lauro de Freitas Caji,,Mercado,#31838F,-38.32571009999999,-12.8913757
POINT (-38.4785895 -12.9672842),Atacadão - Salvador Barros Reis,,Mercado,#31838F,-38.4785895,-12.9672842
POINT (-38.3100115 -12.8760242),Atacadão - Portão,,Mercado,#31838F,-38.3100115,-12.8760242
POINT (-38.4934805 -12.9837888),Atacadão - Salvador Bonocô,,Mercado,#31838F,-38.4934805,-12.9837888
POINT (-38.44307709999999 -12.9159031),GBarbosa,,Mercado,#31838F,-38.44307709999999,-12.9159031
POINT (-38.3083233 -12.8854803),GBarbosa Lauro De Freitas,,Mercado,#31838F,-38.3083233,-12.8854803
POINT (-38.4991816 -12.9824966),GBarbosa Engenho Velho de Brotas,,Mercado,#31838F,-38.4991816,-12.9824966
POINT (-38.474811 -12.9707135),GBarbosa,,Mercado,#31838F,-38.474811,-12.9707135
POINT (-38.4590883 -12.9454193),GBarbosa Cabula,,Mercado,#31838F,-38.4590883,-12.9454193
POINT (-38.3535977 -12.9108277),EletroShow GBarbosa,,Mercado,#31838F,-38.3535977,-12.9108277
POINT (-38.4812263 -12.9375643),Farmácia GBarbosa,,Mercado,#31838F,-38.4812263,-12.9375643
POINT (-38.4485167 -12.9915934),GBarbosa Costa Azul,,Mercado,#31838F,-38.4485167,-12.9915934
POINT (-38.4701585 -12.9797986),GBarbosa Hiper Iguatemi,,Mercado,#31838F,-38.4701585,-12.9797986
POINT (-38.4048982 -12.9072398),Delicatessen Nova Estrela,,Mercado,#31838F,-38.4048982,-12.9072398
POINT (-38.4169577 -12.9716621),Delicatessen Imperial,,Mercado,#31838F,-38.4169577,-12.9716621
POINT (-38.46096199999999 -12.9752651),Esquina Do Pão Delicatessen,,Mercado,#31838F,-38.46096199999999,-12.9752651
POINT (-38.3809081 -12.9518014),Delicatessen Point do Pão,,Mercado,#31838F,-38.3809081,-12.9518014
POINT (-38.4781065 -12.9173965),Bella Massa Delicatessen,,Mercado,#31838F,-38.4781065,-12.9173965
POINT (-38.459505 -12.9718787),DELICATESSEN PONTO CERTO,,Mercado,#31838F,-38.459505,-12.9718787
POINT (-38.461197 -12.9856658),Sampaio Delicatéssen,,Mercado,#31838F,-38.461197,-12.9856658
POINT (-38.4009923 -12.8994999),Delicatessen Doce Pão,,Mercado,#31838F,-38.4009923,-12.8994999
POINT (-38.4496086 -12.9155889),Flor de Jardim Delicatessen,,Mercado,#31838F,-38.4496086,-12.9155889
POINT (-38.4449799 -12.9857853),D’alinda Delicatessen,,Mercado,#31838F,-38.4449799,-12.9857853
POINT (-38.4774716 -12.9957398),Empório Cidade Jardim,,Mercado,#31838F,-38.4774716,-12.9957398
POINT (-38.4496858 -12.9851528),Empório Coisas de Minas Stiep - Salvador,,Mercado,#31838F,-38.4496858,-12.9851528
POINT (-38.5121011 -13.0103756),Empório Coisas de Minas Unidade Ondina - Salvador,,Mercado,#31838F,-38.5121011,-13.0103756
POINT (-38.4451876 -12.9546182),Empório,,Mercado,#31838F,-38.4451876,-12.9546182
POINT (-38.460693 -13.001024),Empório Do Pão,,Mercado,#31838F,-38.460693,-13.001024
POINT (-38.2978442 -12.8865277),Empório Coisas de Minas Vilas,,Mercado,#31838F,-38.2978442,-12.8865277
POINT (-38.5089151 -12.9835467),EMPÓRIO DOS AMIGOS,,Mercado,#31838F,-38.5089151,-12.9835467
POINT (-38.4647468 -12.9828886),Empório Flor de Laranjeira,,Mercado,#31838F,-38.4647468,-12.9828886
POINT (-38.4781116 -12.9931166),Empório Santo Sabor,,Mercado,#31838F,-38.4781116,-12.9931166
POINT (-38.517187 -12.994294),Empório Caroá,,Mercado,#31838F,-38.517187,-12.994294
Praça Nossa Senhora da Assunção, Pituba,,Praça,#6FD2CB,,
Praça do Campo Grande,,,Praça,#6FD2CB,,
Praça Tereza Cristina Lustosa,,,Praça,#6FD2CB,,
Praça Teodoro Gama,,,Praça,#6FD2CB,,
Praça da Matriz,,,Praça,#6FD2CB,,
Praça Nossa Senhora da Luz,,,Praça,#6FD2CB,,
Praça da II,,,Praça,#6FD2CB,,
Praça Aquarius,,,Praça,#6FD2CB,,
Praça do Imbuí,,,Praça,#6FD2CB,,
Praça dos Eucaliptos,,,Praça,#6FD2CB,,
Parque dos Ventos,,,Praça,#6FD2CB,,
Praça do setor 1,,,Praça,#6FD2CB,,
Parque das Aves,,,Praça,#6FD2CB,,
Praça da Quadra C,,,Praça,#6FD2CB,,
Parque da Cidade Joventino Silva,,,Praça,#6FD2CB,,
Praça Santos Dumont,,,Praça,#6FD2CB,,
Praça Mirante dos Aflitos,,,Praça,#6FD2CB,,
Praça Bom Samaritano,,,Praça,#6FD2CB,,
Parque Praça do Boi,,,Praça,#6FD2CB,,
Jardim dos Namorados,,,Praça,#6FD2CB,,
Lagoa do Abaeté,,,Praça,#6FD2CB,,
Lagoa Dos Patos,,,Praça,#6FD2CB,,
Lagoa Parque Tropical,,,Praça,#6FD2CB,,
Lagoa dos Patos,,,Praça,#6FD2CB,,
Lagoa de Piatã,,,Praça,#6FD2CB,,
Lagoa Alphaville I,,,Praça,#6FD2CB,,
Bar Lagoa dos Frades,,,Praça,#6FD2CB,,
Praça LAGOA DOS PATOS,,,Praça,#6FD2CB,,
Lagoa de Nova Salvador,,,Praça,#6FD2CB,,
Programa Mesa Brasil - Sesc Bahia,,,Praça,#6FD2CB,,
POINT (-38.4001463 -12.9050187),Shopping Cajazeiras,,Shopping,#FEDB91,-38.4001463,-12.9050187
POINT (-38.3949236 -12.9365263),Shopping Paralela,,Shopping,#FEDB91,-38.3949236,-12.9365263
POINT (-38.455251 -12.9778603),Salvador Shopping,,Shopping,#FEDB91,-38.455251,-12.9778603
POINT (-38.4746357 -12.9699536),Shopping Bela Vista,,Shopping,#FEDB91,-38.4746357,-12.9699536
POINT (-38.4649511 -12.9812172),Shopping da Bahia,,Shopping,#FEDB91,-38.4649511,-12.9812172
POINT (-38.46917639999999 -12.9956307),Shopping Cidade,,Shopping,#FEDB91,-38.46917639999999,-12.9956307
POINT (-38.4909179 -12.9709153),Shopping Vila Laura,,Shopping,#FEDB91,-38.4909179,-12.9709153
POINT (-38.4637594 -12.9962659),Shopping Itaigara,,Shopping,#FEDB91,-38.4637594,-12.9962659
POINT (-38.3500732 -12.9123367),Shopping São Cristóvão,,Shopping,#FEDB91,-38.3500732,-12.9123367
POINT (-38.3185516 -12.8876681),Parque Shopping Bahia,,Shopping,#FEDB91,-38.3185516,-12.8876681
POINT (-38.3851228 -12.9437911),Pátio piatã,,Shopping,#FEDB91,-38.3851228,-12.9437911
POINT (-38.4044761 -12.9389079),Alpha Mall,,Shopping,#FEDB91,-38.4044761,-12.9389079
POINT (-38.3915609 -12.9569553),Shopping Villarejo Mall,,Shopping,#FEDB91,-38.3915609,-12.9569553
POINT (-38.3952434 -12.9365739),Saraiva,,Shopping,#FEDB91,-38.3952434,-12.9365739
POINT (-38.3950328 -12.9369342),First Class Salvador - Cama mesa e banho - Shopping Paralela,,Shopping,#FEDB91,-38.3950328,-12.9369342
POINT (-38.369327 -12.9462066),Itapuã Center,,Shopping,#FEDB91,-38.369327,-12.9462066
POINT (-38.36553869999999 -12.9428285),Bahia Shopping,,Shopping,#FEDB91,-38.36553869999999,-12.9428285
POINT (-38.3513333 -12.9083785),Salvador Norte Shopping,,Shopping,#FEDB91,-38.3513333,-12.9083785
POINT (-38.30122929999999 -12.8690166),Centro Comercial Portão,,Shopping,#FEDB91,-38.30122929999999,-12.8690166
POINT (-38.3424039 -12.9388878),Centro Comercial Alamedas da Praia,,Shopping,#FEDB91,-38.3424039,-12.9388878
POINT (-38.3506968 -12.9111116),Centro comercial são cristovão,,Shopping,#FEDB91,-38.3506968,-12.9111116
POINT (-38.4617437 -13.0008261),Centro Comercial Jardim Pituba,,Shopping,#FEDB91,-38.4617437,-13.0008261
POINT (-38.4361705 -12.9284117),Centro Comercial São Marcos,,Shopping,#FEDB91,-38.4361705,-12.9284117
POINT (-38.3650195 -12.949554),Centro Comercial ÁGUIA,,Shopping,#FEDB91,-38.3650195,-12.949554
POINT (-38.3250033 -12.8907707),Centro Comercial Gre Center,,Shopping,#FEDB91,-38.3250033,-12.8907707
POINT (-38.4468304 -12.9534747),Centro Comercial Narandiba,,Shopping,#FEDB91,-38.4468304,-12.9534747
POINT (-38.42524170000001 -12.9771572),Centro comercial bocadório,,Shopping,#FEDB91,-38.42524170000001,-12.9771572
POINT (-38.4188373 -12.9169684),Centro Comercial Nossa Senhora de Fátima,,Shopping,#FEDB91,-38.4188373,-12.9169684
POINT (-38.4785841 -12.9864975),Centro Comercial de Brotas,,Shopping,#FEDB91,-38.4785841,-12.9864975
POINT (-38.5193251 -12.9864371),CENTRO COMERCIAL POLITEAMA,,Shopping,#FEDB91,-38.5193251,-12.9864371
POINT (-38.3012986 -12.8690311),Centro Comercial Portão,,Shopping,#FEDB91,-38.3012986,-12.8690311
POINT (-38.4953914 -12.9499211),Centro Comercial Liberdade,,Shopping,#FEDB91,-38.4953914,-12.9499211
POINT (-38.4925017 -13.0013854),Centro Comercial Santa Madalena,,Shopping,#FEDB91,-38.4925017,-13.0013854
POINT (-38.3015995 -12.8848248),Shopping Center Villaverde Street Mall,,Shopping,#FEDB91,-38.3015995,-12.8848248
POINT (-38.4995256 -12.9518961),Shopping Liberdade,,Shopping,#FEDB91,-38.4995256,-12.9518961
POINT (-38.4382016 -12.9686482),Shopping Imbuí Plaza,,Shopping,#FEDB91,-38.4382016,-12.9686482
POINT (-38.524003 -12.9898357),Vitória Boulevard,,Shopping,#FEDB91,-38.524003,-12.9898357
POINT (-38.4415179 -12.9681474),SHOPPING AMAZÔNIA,,Shopping,#FEDB91,-38.4415179,-12.9681474
POINT (-38.3290833 -12.8958505),Shopinng Ponto Verde,,Shopping,#FEDB91,-38.3290833,-12.8958505
POINT (-38.2675412 -12.8250571),Outlet Premium Salvador,,Shopping,#FEDB91,-38.2675412,-12.8250571
POINT (-38.3065885 -12.8752936),Shopping Estrada do Coco,,Shopping,#FEDB91,-38.3065885,-12.8752936
POINT (-38.5130701 -12.9835518),Shopping Piedade,,Shopping,#FEDB91,-38.5130701,-12.9835518
POINT (-38.4598757 -12.993932),Farmácia Pague Menos,,Drogaria,#FF8C00,-38.4598757,-12.993932
POINT (-38.5184337 -13.0041797),Drogasil,,Drogaria,#FF8C00,-38.5184337,-13.0041797
POINT (-38.4838215 -13.0125011),Drogasil,,Drogaria,#FF8C00,-38.4838215,-13.0125011
POINT (-38.5095075 -13.0100325),Farmácia Hiper Econômica,,Drogaria,#FF8C00,-38.5095075,-13.0100325
POINT (-38.3418529 -12.9391503),Drogasil,,Drogaria,#FF8C00,-38.3418529,-12.9391503
POINT (-38.4679558 -12.960133),Farmácia Pague Menos,,Drogaria,#FF8C00,-38.4679558,-12.960133
POINT (-38.4990188 -13.0052538),Drogasil,,Drogaria,#FF8C00,-38.4990188,-13.0052538
POINT (-38.5028981 -12.9397824),Farmácia Vila Mares,,Drogaria,#FF8C00,-38.5028981,-12.9397824
POINT (-38.5137 -12.9821784),Farmácia Pague Menos,,Drogaria,#FF8C00,-38.5137,-12.9821784
POINT (-38.4886622 -12.9585856),Farmácia Rede Med,,Drogaria,#FF8C00,-38.4886622,-12.9585856
POINT (-38.3345408 -12.9394914),DROGARIA SÃO PAULO,,Drogaria,#FF8C00,-38.3345408,-12.9394914
POINT (-38.3513062 -12.9139224),Drogaria Renascer de São Cristóvão,,Drogaria,#FF8C00,-38.3513062,-12.9139224
POINT (-38.454332 -12.9899661),DROGARIA SÃO PAULO,,Drogaria,#FF8C00,-38.454332,-12.9899661
POINT (-38.4617774 -12.9542657),DROGARIA SÃO PAULO,,Drogaria,#FF8C00,-38.4617774,-12.9542657
POINT (-38.4916286 -13.0000097),DROGARIA SÃO PAULO,,Drogaria,#FF8C00,-38.4916286,-13.0000097
POINT (-38.4499299 -12.959928),Drogaria São Paulo,,Drogaria,#FF8C00,-38.4499299,-12.959928
POINT (-38.5202349 -12.9910279),DROGARIA SÃO PAULO,,Drogaria,#FF8C00,-38.5202349,-12.9910279
POINT (-38.3658856 -12.9449639),DROGARIA SÃO PAULO,,Drogaria,#FF8C00,-38.3658856,-12.9449639
POINT (-38.509478 -13.0081506),DROGARIA SÃO PAULO,,Drogaria,#FF8C00,-38.509478,-13.0081506
POINT (-38.48836599999999 -12.9570808),Drogasil,,Drogaria,#FF8C00,-38.48836599999999,-12.9570808
POINT (-38.4986352 -12.9826337),Drogasil,,Drogaria,#FF8C00,-38.4986352,-12.9826337
POINT (-38.4339069 -12.9800184),Drogasil,,Drogaria,#FF8C00,-38.4339069,-12.9800184
POINT (-38.4435738 -12.9782595),Drogasil,,Drogaria,#FF8C00,-38.4435738,-12.9782595
POINT (-38.4898777 -13.0022237),Drogasil,,Drogaria,#FF8C00,-38.4898777,-13.0022237
POINT (-38.4949231 -12.975707),DROGASIL,,Drogaria,#FF8C00,-38.4949231,-12.975707
POINT (-38.4576751 -13.0042986),Drogasil,,Drogaria,#FF8C00,-38.4576751,-13.0042986
POINT (-38.4364262 -12.9660462),Drogasil,,Drogaria,#FF8C00,-38.4364262,-12.9660462
POINT (-38.486368 -13.0038144),Drogasil,,Drogaria,#FF8C00,-38.486368,-13.0038144
POINT (-38.4631621 -13.0081557),Drogasil,,Drogaria,#FF8C00,-38.4631621,-13.0081557
POINT (-38.5213581 -12.9986102),Farmácia Pague Menos,,Drogaria,#FF8C00,-38.5213581,-12.9986102
POINT (-38.454824 -12.9924579),Farmácia Pague Menos,,Drogaria,#FF8C00,-38.454824,-12.9924579
POINT (-38.46382 -12.966317),Farmácia Pague Menos,,Drogaria,#FF8C00,-38.46382,-12.966317
POINT (-38.4802409 -12.9881623),Farmácia Pague Menos,,Drogaria,#FF8C00,-38.4802409,-12.9881623
POINT (-38.4598574 -12.9938979),Farmácia Pague Menos,,Drogaria,#FF8C00,-38.4598574,-12.9938979
POINT (-38.5006411 -12.9797229),Farmácia Pague Menos,,Drogaria,#FF8C00,-38.5006411,-12.9797229
POINT (-38.4106717 -12.9194068),Farmácia Pague Menos,,Drogaria,#FF8C00,-38.4106717,-12.9194068
POINT (-38.5034283 -12.928426),Farmácia Pague Menos,,Drogaria,#FF8C00,-38.5034283,-12.928426
POINT (-38.497208 -12.9366197),Farmácia Pague Menos,,Drogaria,#FF8C00,-38.497208,-12.9366197
POINT (-38.4584087 -13.0051667),Farmácia Pague Menos,,Drogaria,#FF8C00,-38.4584087,-13.0051667
POINT (-38.4629603 -13.0079412),Drogaria Globo Manoel Dias,,Drogaria,#FF8C00,-38.4629603,-13.0079412
POINT (-38.5147134 -12.9805358),Drogaria Globo Avenida 7,,Drogaria,#FF8C00,-38.5147134,-12.9805358
POINT (-38.47954259999999 -12.9884279),Drogaria Globo Brotas,,Drogaria,#FF8C00,-38.47954259999999,-12.9884279
POINT (-38.4941699 -12.9482855),Drogaria Globo Liberdade,,Drogaria,#FF8C00,-38.4941699,-12.9482855
POINT (-38.5225315 -12.9985312),Drogaria Globo Graça,,Drogaria,#FF8C00,-38.5225315,-12.9985312
POINT (-38.4578195 -12.9864104),Drogaria Globo Espatódeas,,Drogaria,#FF8C00,-38.4578195,-12.9864104
POINT (-38.4430839 -12.9205252),Drogaria Globo - Pau da Lima,,Drogaria,#FF8C00,-38.4430839,-12.9205252
POINT (-38.3235384 -12.8946866),Drogaria Globo Lauro de Freitas,,Drogaria,#FF8C00,-38.3235384,-12.8946866
POINT (-38.46905659999999 -12.840968),Drogaria Globo Paripe,,Drogaria,#FF8C00,-38.46905659999999,-12.840968
POINT (-38.3648657 -12.9417166),Drogaria Globo Itapuã,,Drogaria,#FF8C00,-38.3648657,-12.9417166
